{"type":"FeatureCollection","features":[{"type":"Feature","properties":{"place":"seattle","color":"yellow","descrip":"3. Seattle, WA"},"geometry":{"type":"Point","coordinates":[-122.02072620391846,47.37158802490896]}},{"type":"Feature","properties":{"place":"arizona","color":"green","descrip":"4. Scottsdale, AZ"},"geometry":{"type":"Point","coordinates":[-111.89918518066406,33.509911888077184]}},{"type":"Feature","properties":{"place":"socal","color":"blue","descrip":"5. Mission Viejo, CA"},"geometry":{"type":"Point","coordinates":[-117.66082763671875,33.59689090527595]}},{"type":"Feature","properties":{"place":"china","color":"red","descrip":"1. Jiangxi, China"},"geometry":{"type":"Point","coordinates":[-244.1162109375,28.70986084394286]}},{"type":"Feature","properties":{"place":"norcal","color":"orange","descrip":"2. Roseville, CA"},"geometry":{"type":"Point","coordinates":[-121.28562927246092,38.753012320665185]}},{"type":"Feature","properties":{"place":"ucla","color":"purple","descrip":"6. Los Angeles, CA"},"geometry":{"type":"Point","coordinates":[-118.44557762145996,34.07064903114543]}}]}